[{"grubhub_id":"969994","name":"El Chicano","categories":["Latin American","Mexican"],"phone":"7654484206","rating":3.7936120868983556,"address_line_1":"6 N Earl Ave","city":"Lafayette","state":"IN","zip_code":"47904","lat":"40.41798019","lng":"-86.86122895","order_minimum":0,"delivery_fee":0,"image":"vxfka0dbg3m7czjlfl2n.jpg","available_hours":[{"day_of_week":1,"start_time":"12:00:00","end_time":"20:30:00"},{"day_of_week":2,"start_time":"12:00:00","end_time":"15:00:00"},{"day_of_week":3,"start_time":"12:00:00","end_time":"20:30:00"},{"day_of_week":4,"start_time":"12:00:00","end_time":"20:30:00"},{"day_of_week":5,"start_time":"12:00:00","end_time":"20:30:00"},{"day_of_week":6,"start_time":"12:00:00","end_time":"20:30:00"},{"day_of_week":7,"start_time":"12:00:00","end_time":"20:30:00"}]},{"grubhub_id":"970229","name":"Sushi Don","categories":["Asian","Japanese","Sushi"],"phone":"7654476655","rating":3.9098752112608457,"address_line_1":"3338 Main St","city":"Lafayette","state":"IN","zip_code":"47905","lat":"40.40155029","lng":"-86.85816193","order_minimum":0,"delivery_fee":0,"image":"xuvzhi0hvuoqkx8c96ot.jpg","available_hours":[{"day_of_week":1,"start_time":"12:00:00","end_time":"16:00:00"},{"day_of_week":1,"start_time":"17:30:00","end_time":"22:00:00"},{"day_of_week":2,"start_time":"12:00:00","end_time":"16:00:00"},{"day_of_week":2,"start_time":"17:30:00","end_time":"22:00:00"},{"day_of_week":3,"start_time":"12:00:00","end_time":"16:00:00"},{"day_of_week":3,"start_time":"17:30:00","end_time":"22:00:00"},{"day_of_week":4,"start_time":"12:00:00","end_time":"16:00:00"},{"day_of_week":4,"start_time":"17:30:00","end_time":"22:00:00"},{"day_of_week":5,"start_time":"12:00:00","end_time":"16:00:00"},{"day_of_week":5,"start_time":"17:30:00","end_time":"22:00:00"},{"day_of_week":6,"start_time":"12:00:00","end_time":"16:00:00"},{"day_of_week":6,"start_time":"17:30:00","end_time":"22:00:00"}]},{"grubhub_id":"970233","name":"Captain Gyros","categories":["Hamburgers","Salads","Sandwiches","Wraps"],"phone":"7657437170","rating":3.902628831005806,"address_line_1":"132 Northwestern Ave","city":"West Lafayette","state":"IN","zip_code":"47906","lat":"40.42456054","lng":"-86.907753","order_minimum":0,"delivery_fee":0,"image":"b5alq38h8k2chaexn8m0.jpg","available_hours":[{"day_of_week":1,"start_time":"12:00:00","end_time":"23:00:00"},{"day_of_week":2,"start_time":"12:00:00","end_time":"23:00:00"},{"day_of_week":3,"start_time":"12:00:00","end_time":"23:00:00"},{"day_of_week":4,"start_time":"12:00:00","end_time":"23:00:00"},{"day_of_week":5,"start_time":"12:00:00","end_time":"23:00:00"},{"day_of_week":6,"start_time":"12:00:00","end_time":"23:00:00"},{"day_of_week":7,"start_time":"12:00:00","end_time":"23:00:00"}]},{"grubhub_id":"969264","name":"KFC","categories":["American","Chicken","Potato","Sandwiches","Southern","Wings"],"phone":"7654636212","rating":4.041709103844194,"address_line_1":"609 Sagamore Pkwy W","city":"West Lafayette","state":"IN","zip_code":"47906","lat":"40.45285415","lng":"-86.91690064","order_minimum":0,"delivery_fee":3.99,"image":"czo9eqkp5i1unhizmetq.jpg","available_hours":[{"day_of_week":1,"start_time":"12:00:00","end_time":"22:00:00"},{"day_of_week":2,"start_time":"12:00:00","end_time":"22:00:00"},{"day_of_week":3,"start_time":"12:00:00","end_time":"22:00:00"},{"day_of_week":4,"start_time":"12:00:00","end_time":"22:00:00"},{"day_of_week":5,"start_time":"12:00:00","end_time":"22:00:00"},{"day_of_week":6,"start_time":"12:00:00","end_time":"22:00:00"},{"day_of_week":7,"start_time":"12:00:00","end_time":"22:00:00"}]},{"grubhub_id":"937400","name":"Lotsa Stone Fired Pizza-West Lafayette","categories":["Italian","Pizza"],"phone":"7657614400","rating":3.7738360568236398,"address_line_1":"316 W State St","city":"West Lafayette","state":"IN","zip_code":"47906","lat":"40.42406463","lng":"-86.90870667","order_minimum":0,"delivery_fee":0,"image":"ft7jg3hahokw8v8ftpje.jpg","available_hours":[{"day_of_week":1,"start_time":"12:00:00","end_time":"00:00:00"},{"day_of_week":2,"start_time":"12:00:00","end_time":"00:00:00"},{"day_of_week":3,"start_time":"12:00:00","end_time":"00:00:00"},{"day_of_week":4,"start_time":"12:00:00","end_time":"00:00:00"},{"day_of_week":5,"start_time":"12:00:00","end_time":"00:00:00"},{"day_of_week":6,"start_time":"12:00:00","end_time":"00:00:00"},{"day_of_week":7,"start_time":"12:00:00","end_time":"00:00:00"}]},{"grubhub_id":"987037","name":"The Dock 231","categories":["American","Chicken","Dessert","Hamburgers","Kids Menu","Salads","Sandwiches","Soup","Subs"],"phone":"7654020044","rating":3.273567146874498,"address_line_1":"5011 Old US Highway 231 S","city":"Lafayette","state":"IN","zip_code":"47909","lat":"40.34494018","lng":"-86.90369416","order_minimum":0,"delivery_fee":0,"image":"nf7ryvokjqlw0dyhcbpf.jpg","available_hours":[{"day_of_week":1,"start_time":"12:00:00","end_time":"23:00:00"},{"day_of_week":2,"start_time":"12:00:00","end_time":"23:00:00"},{"day_of_week":3,"start_time":"12:00:00","end_time":"23:00:00"},{"day_of_week":4,"start_time":"12:00:00","end_time":"23:00:00"},{"day_of_week":5,"start_time":"12:00:00","end_time":"23:00:00"},{"day_of_week":6,"start_time":"12:00:00","end_time":"23:00:00"},{"day_of_week":7,"start_time":"12:00:00","end_time":"23:00:00"}]},{"grubhub_id":"969052","name":"NY Cafe","categories":["Hamburgers","Salads","Sandwiches","Seafood","Wraps"],"phone":"7654479067","rating":3.591744967207248,"address_line_1":"8 N Earl Ave","city":"Lafayette","state":"IN","zip_code":"47904","lat":"40.418087","lng":"-86.86117554","order_minimum":0,"delivery_fee":0,"image":"nfohknpkblvwkkcsxobe.jpg","available_hours":[{"day_of_week":1,"start_time":"12:00:00","end_time":"20:30:00"},{"day_of_week":2,"start_time":"12:00:00","end_time":"20:30:00"},{"day_of_week":3,"start_time":"12:00:00","end_time":"20:30:00"},{"day_of_week":4,"start_time":"12:00:00","end_time":"20:30:00"},{"day_of_week":5,"start_time":"12:00:00","end_time":"20:30:00"},{"day_of_week":6,"start_time":"12:00:00","end_time":"20:30:00"},{"day_of_week":7,"start_time":"12:00:00","end_time":"20:30:00"}]},{"grubhub_id":"481331","name":"GoPuff","categories":["Grocery Items","Lunch Specials"],"phone":"8554007833","rating":3.2712246199944452,"address_line_1":"419 N 3rd St","city":"Lafayette","state":"IN","zip_code":"47901","lat":"40.4215381","lng":"-86.8939817","order_minimum":9,"delivery_fee":1.95,"image":"d5ysdfdgoska5iwjoqk2.jpg","available_hours":[{"day_of_week":1,"start_time":"13:00:00","end_time":"05:20:00"},{"day_of_week":2,"start_time":"13:00:00","end_time":"05:20:00"},{"day_of_week":3,"start_time":"13:00:00","end_time":"05:20:00"},{"day_of_week":4,"start_time":"13:00:00","end_time":"05:20:00"},{"day_of_week":5,"start_time":"13:00:00","end_time":"05:20:00"},{"day_of_week":6,"start_time":"13:00:00","end_time":"05:20:00"},{"day_of_week":7,"start_time":"13:00:00","end_time":"05:20:00"}]},{"grubhub_id":"969077","name":"Sweet Sensations Bakery & Cafe","categories":["Bakery","Dessert","Sandwiches"],"phone":"7658381851","rating":0,"address_line_1":"1221 S Creasy Ln","city":"Lafayette","state":"IN","zip_code":"47905","lat":"40.39904785","lng":"-86.83766175","order_minimum":0,"delivery_fee":0,"image":"zxojjyi9plvpahky7khv.jpg","available_hours":[{"day_of_week":1,"start_time":"12:00:00","end_time":"17:30:00"},{"day_of_week":2,"start_time":"12:00:00","end_time":"17:30:00"},{"day_of_week":3,"start_time":"12:00:00","end_time":"17:30:00"},{"day_of_week":4,"start_time":"12:00:00","end_time":"17:30:00"},{"day_of_week":5,"start_time":"12:00:00","end_time":"17:30:00"},{"day_of_week":6,"start_time":"12:00:00","end_time":"16:00:00"}]},{"grubhub_id":"952484","name":"O'Rears Pastry Shop","categories":[],"phone":"7657422285","rating":0,"address_line_1":"321 N 9th St","city":"Lafayette","state":"IN","zip_code":"47904","lat":"40.42057418","lng":"-86.88665009","order_minimum":0,"delivery_fee":0,"image":"ol7e85snipponr9r1qzt.jpg","available_hours":[{"day_of_week":1,"start_time":"12:00:00","end_time":"13:00:00"},{"day_of_week":2,"start_time":"12:00:00","end_time":"17:00:00"},{"day_of_week":3,"start_time":"12:00:00","end_time":"17:00:00"},{"day_of_week":4,"start_time":"12:00:00","end_time":"17:00:00"},{"day_of_week":5,"start_time":"12:00:00","end_time":"18:00:00"},{"day_of_week":6,"start_time":"12:00:00","end_time":"16:00:00"},{"day_of_week":7,"start_time":"12:00:00","end_time":"13:00:00"}]}]